<?xml version='1.0' encoding='UTF-8' standalone='yes' ?>
<kml xmlns="http://www.opengis.net/kml/2.2">
<Document>
<Placemark>
<name>Start
</name>
<description>
<![CDATA[
<p>
</p>
]]>
</description>
<Point>
<coordinates>-80.59874,37.35383,667.8
</coordinates>
</Point>
</Placemark>
<Placemark>
<name>Small Block entrance
</name>
<description>
<![CDATA[]]>
</description>
<Point>
<coordinates>-80.59779,37.354206,669.3
</coordinates>
</Point>
</Placemark>
<Placemark>
<name>Small Block
</name>
<description>
<![CDATA[]]>
</description>
<Point>
<coordinates>-80.5979,37.35436,671.3
</coordinates>
</Point>
</Placemark>
<Placemark>
<name>Cascadia entrance
</name>
<description>
<![CDATA[]]>
</description>
<Point>
<coordinates>-80.59714,37.35451,674.7
</coordinates>
</Point>
</Placemark>
<Placemark>
<name>Cascadia
</name>
<description>
<![CDATA[]]>
</description>
<Point>
<coordinates>-80.59721,37.35433,674.0
</coordinates>
</Point>
</Placemark>
<Placemark>
<name>Elevation Area entrance
</name>
<description>
<![CDATA[]]>
</description>
<Point>
<coordinates>-80.59585,37.354984,706.7
</coordinates>
</Point>
</Placemark>
<Placemark>
<name>Pyramid Area entrance
</name>
<description>
<![CDATA[]]>
</description>
<Point>
<coordinates>-80.591606,37.357338,732.3
</coordinates>
</Point>
</Placemark>
<Placemark>
<name>Shadowcast
</name>
<description>
<![CDATA[]]>
</description>
<Point>
<coordinates>-80.589325,37.357883,716.2
</coordinates>
</Point>
</Placemark>
<Placemark>
<name>Contrast Area entrance
</name>
<description>
<![CDATA[]]>
</description>
<Point>
<coordinates>-80.58897,37.358562,709.9
</coordinates>
</Point>
</Placemark>
<Placemark>
<name>Title Fight Boulder
</name>
<description>
<![CDATA[]]>
</description>
<Point>
<coordinates>-80.58834,37.360035,774.7
</coordinates>
</Point>
</Placemark>
<Placemark>
<name>Appetizer Boulder
</name>
<description>
<![CDATA[]]>
</description>
<Point>
<coordinates>-80.58782,37.359943,779.2
</coordinates>
</Point>
</Placemark>
<Placemark>
<name>Title Fight Area entrance
</name>
<description>
<![CDATA[]]>
</description>
<Point>
<coordinates>-80.58776,37.35974,744.8
</coordinates>
</Point>
</Placemark>
<Placemark>
<name>Golightly Boulder
</name>
<description>
<![CDATA[]]>
</description>
<Point>
<coordinates>-80.59127,37.35736,756.8
</coordinates>
</Point>
</Placemark>
<Placemark>
<name>Bridge
</name>
<description>
<![CDATA[
<p>
</p>
]]>
</description>
<styleUrl>#PIN_GREEN
</styleUrl>
<Point>
<coordinates>-80.59613,37.354668,681.0
</coordinates>
</Point>
</Placemark>
<Placemark>
<name>First Bench 
</name>
<description>
<![CDATA[]]>
</description>
<styleUrl>#PIN_GREEN
</styleUrl>
<Point>
<coordinates>-80.5941,37.35605,699.9
</coordinates>
</Point>
</Placemark>
<Placemark>
<name>Second Bench 
</name>
<description>
<![CDATA[]]>
</description>
<styleUrl>#PIN_GREEN
</styleUrl>
<Point>
<coordinates>-80.58869,37.35884,716.1
</coordinates>
</Point>
</Placemark>
<Placemark>
<name>First Boulder In Phramid Area
</name>
<description>
<![CDATA[]]>
</description>
<styleUrl>#PIN_GREEN
</styleUrl>
<Point>
<coordinates>-80.59168,37.357277,801.0
</coordinates>
</Point>
</Placemark>
<Placemark>
<name>Coltrol Boulder
</name>
<description>
<![CDATA[]]>
</description>
<styleUrl>#PIN_GREEN
</styleUrl>
<Point>
<coordinates>-80.591675,37.357433,747.7
</coordinates>
</Point>
</Placemark>
<Placemark>
<name>Pyramid
</name>
<description>
<![CDATA[]]>
</description>
<styleUrl>#PIN_GREEN
</styleUrl>
<Point>
<coordinates>-80.591156,37.35747,733.9
</coordinates>
</Point>
</Placemark>
<Placemark>
<name>Across Stream from Trailside
</name>
<description>
<![CDATA[]]>
</description>
<styleUrl>#PIN_GREEN
</styleUrl>
<Point>
<coordinates>-80.593285,37.35594,736.2
</coordinates>
</Point>
</Placemark>
<Placemark>
<name>Waterfall Block
</name>
<description>
<![CDATA[]]>
</description>
<styleUrl>#PIN_GREEN
</styleUrl>
<Point>
<coordinates>-80.59665,37.35414,688.3
</coordinates>
</Point>
</Placemark>
<Placemark>
<name>Clandestine Block
</name>
<description>
<![CDATA[]]>
</description>
<styleUrl>#PIN_GREEN
</styleUrl>
<Point>
<coordinates>-80.59629,37.35346,703.5
</coordinates>
</Point>
</Placemark>
<Placemark>
<name>Supermassive Boulder
</name>
<description>
<![CDATA[]]>
</description>
<styleUrl>#PIN_BLUE
</styleUrl>
<Point>
<coordinates>-80.59768,37.35318,674.9
</coordinates>
</Point>
</Placemark>
</Document>
</kml>
